City_ID,City,Latitude,Longitude,Temperature,Humidity,Cloudiness,Wind speed,Country,Date
0,Nikolskoye,59.7035,30.7861,64.87,99,100,9.42,RU,2022-08-02
1,Mahébourg,-20.4081,57.7,66.49,94,40,6.91,MU,2022-08-02
2,Avarua,-21.2078,-159.775,78.85,57,75,14.97,CK,2022-08-02
3,Agía Galíni,35.1,24.6833,79.39,57,0,8.55,GR,2022-08-02
4,Coruripe,-10.1256,-36.1756,71.37,77,21,7.63,BR,2022-08-02
5,Toora-Khem,52.4675,96.11,65.43,74,25,2.44,RU,2022-08-02
6,Petropavlovsk-Kamchatskiy,53.0452,158.6483,66.79,56,20,4.47,RU,2022-08-02
7,Northam,51.0333,-4.2167,66.38,95,100,15.05,GB,2022-08-02
8,Punta Arenas,-53.15,-70.9167,44.71,61,75,5.75,CL,2022-08-02
9,Anekal,12.7,77.7,74.8,91,100,4.94,IN,2022-08-02
10,Shalinskoye,55.7228,93.7594,55.78,95,100,4.72,RU,2022-08-02
11,Geraldton,-28.7667,114.6,61.21,63,75,19.57,AU,2022-08-02
12,Tasiilaq,65.6145,-37.6368,44.76,62,5,2.59,GL,2022-08-02
13,Hambantota,6.1241,81.1185,77.34,94,75,5.75,LK,2022-08-02
14,Hong Kong,22.2855,114.1577,89.04,76,82,4.0,HK,2022-08-02
15,Esperance,-33.8667,121.9,53.44,63,47,34.34,AU,2022-08-02
16,Yangi Marg`ilon,40.4272,71.7189,75.74,38,21,2.19,UZ,2022-08-02
17,Ushuaia,-54.8,-68.3,44.26,70,20,8.05,AR,2022-08-02
18,Barranca,-10.75,-77.7667,61.16,84,73,9.33,PE,2022-08-02
19,Hobart,-42.8794,147.3294,51.26,69,12,1.01,AU,2022-08-02
20,Busselton,-33.65,115.3333,53.51,62,100,27.0,AU,2022-08-02
21,Tiksi,71.6872,128.8694,44.37,81,100,0.58,RU,2022-08-02
22,Lompoc,34.6391,-120.4579,77.85,77,0,13.8,US,2022-08-02
23,Port Alfred,-33.5906,26.891,55.83,71,94,8.63,ZA,2022-08-02
24,Broken Hill,-31.95,141.4333,58.06,31,100,20.38,AU,2022-08-02
25,Teknāf,20.8624,92.3058,82.4,82,83,2.13,BD,2022-08-02
26,Bluff,-46.6,168.3333,54.45,62,4,21.61,NZ,2022-08-02
27,Sirte,31.2089,16.5887,80.65,73,0,6.4,LY,2022-08-02
28,Cape Town,-33.9258,18.4232,55.38,77,0,7.0,ZA,2022-08-02
29,Tuatapere,-46.1333,167.6833,55.53,62,5,13.35,NZ,2022-08-02
30,Dikson,73.5069,80.5464,41.49,87,100,7.16,RU,2022-08-02
31,Mossamedes,-15.1961,12.1522,56.84,63,100,9.51,AO,2022-08-02
32,Atar,20.5169,-13.0499,81.55,67,100,10.85,MR,2022-08-02
33,Beloha,-25.1667,45.05,64.44,75,78,10.25,MG,2022-08-02
34,Butaritari,3.0707,172.7902,81.61,78,47,21.77,KI,2022-08-02
35,Hilo,19.7297,-155.09,87.28,69,40,10.36,US,2022-08-02
36,Ostrovnoy,68.0531,39.5131,54.23,95,100,12.35,RU,2022-08-02
37,Mkushi,-13.6202,29.3939,55.47,72,0,8.66,ZM,2022-08-02
38,Mataura,-46.1927,168.8643,54.27,61,0,10.8,NZ,2022-08-02
39,Hermanus,-34.4187,19.2345,47.8,74,0,8.3,ZA,2022-08-02
40,Coquimbo,-29.9533,-71.3436,53.33,93,100,3.44,CL,2022-08-02
41,Port Keats,-14.25,129.55,82.69,43,85,2.77,AU,2022-08-02
42,Thompson,55.7435,-97.8558,64.56,48,40,4.61,CA,2022-08-02
43,Jamestown,42.097,-79.2353,76.59,79,100,9.22,US,2022-08-02
44,Atakent,40.8464,68.5067,73.96,36,85,3.04,KZ,2022-08-02
45,Torbay,47.6666,-52.7314,72.37,62,75,10.36,CA,2022-08-02
46,Rikitea,-23.1203,-134.9692,73.11,74,5,25.79,PF,2022-08-02
47,Mar del Plata,-38.0023,-57.5575,52.09,92,0,3.0,AR,2022-08-02
48,Saint Paul Harbor,57.79,-152.4072,63.91,48,75,12.66,US,2022-08-02
49,Chui,-33.6971,-53.4616,52.63,94,14,4.25,UY,2022-08-02
50,Srednekolymsk,67.45,153.6833,67.33,80,100,4.56,RU,2022-08-02
51,Rancho Palos Verdes,33.7445,-118.387,89.65,76,40,17.27,US,2022-08-02
52,Saskylakh,71.9167,114.0833,42.57,70,100,11.92,RU,2022-08-02
53,Bilibino,68.0546,166.4372,69.42,37,18,19.75,RU,2022-08-02
54,Lebu,-37.6167,-73.65,46.09,83,1,11.56,CL,2022-08-02
55,Narasannapeta,18.4167,84.05,81.7,84,100,4.36,IN,2022-08-02
56,Bredasdorp,-34.5322,20.0403,43.83,85,0,2.64,ZA,2022-08-02
57,Vaini,-21.2,-175.2,82.56,89,40,9.22,TO,2022-08-02
58,Lorengau,-2.0226,147.2712,83.32,77,20,11.74,PG,2022-08-02
59,Vestmannaeyjar,63.4427,-20.2734,47.32,74,11,18.68,IS,2022-08-02
60,Kapaa,22.0752,-159.319,89.58,63,75,18.41,US,2022-08-02
61,Arraial do Cabo,-22.9661,-42.0278,70.7,88,0,20.89,BR,2022-08-02
62,Pangnirtung,66.1451,-65.7125,47.57,82,100,3.76,CA,2022-08-02
63,Troitsko-Pechorsk,62.7084,56.1964,54.97,75,100,4.23,RU,2022-08-02
64,Outlook,51.5001,-107.0513,77.29,48,3,7.78,CA,2022-08-02
65,San Cristobal,7.7669,-72.225,71.78,98,100,1.05,VE,2022-08-02
66,Labuhan,-6.8844,112.2051,79.52,78,87,6.62,ID,2022-08-02
67,Nosy Varika,-20.5833,48.5333,65.01,90,22,5.91,MG,2022-08-02
68,Mazatlán,23.2167,-106.4167,81.01,74,100,18.41,MX,2022-08-02
69,Zhezkazgan,47.8043,67.7144,69.19,55,100,6.87,KZ,2022-08-02
70,Redondela,42.2834,-8.6096,79.79,68,0,1.14,ES,2022-08-02
71,Fairbanks,64.8378,-147.7164,75.2,49,0,5.75,US,2022-08-02
72,Jerome,42.7241,-114.5186,89.44,32,0,11.5,US,2022-08-02
73,Meulaboh,4.1363,96.1285,78.44,81,100,3.42,ID,2022-08-02
74,Nadym,65.5333,72.5167,53.53,71,10,6.29,RU,2022-08-02
75,Unaí,-16.3575,-46.9061,72.43,43,31,2.89,BR,2022-08-02
76,Kaitangata,-46.2817,169.8464,52.99,73,66,9.06,NZ,2022-08-02
77,Lavrentiya,65.5833,-171.0,52.74,69,75,6.98,RU,2022-08-02
78,Hualmay,-11.0964,-77.6139,61.61,84,37,10.71,PE,2022-08-02
79,Anloga,5.7947,0.8973,73.6,84,6,12.3,GH,2022-08-02
80,Bilma,18.6853,12.9164,84.4,51,96,21.07,NE,2022-08-02
81,Alekseyevka,50.6309,38.6903,64.98,62,52,11.03,RU,2022-08-02
82,Sanmenxia,34.7747,111.1814,83.46,63,30,8.32,CN,2022-08-02
83,Ndélé,8.4109,20.6473,68.97,97,100,2.35,CF,2022-08-02
84,Ngunguru,-35.6167,174.5,58.51,59,100,9.8,NZ,2022-08-02
85,Carnarvon,-24.8667,113.6333,65.08,65,100,16.69,AU,2022-08-02
86,Faanui,-16.4833,-151.75,78.66,65,2,21.05,PF,2022-08-02
87,Tazovsky,67.4667,78.7,48.88,76,17,10.63,RU,2022-08-02
88,Jacareacanga,-6.2222,-57.7528,77.43,72,97,1.72,BR,2022-08-02
89,Grand Island,40.925,-98.342,91.69,57,0,6.91,US,2022-08-02
90,Mandalgovi,45.7625,106.2708,68.85,57,0,7.07,MN,2022-08-02
91,Tagusao,9.1924,117.8141,83.03,75,100,8.01,PH,2022-08-02
92,Dunedin,-45.8742,170.5036,54.55,66,100,3.83,NZ,2022-08-02
93,Qui Nhon,13.7667,109.2333,82.24,74,47,1.74,VN,2022-08-02
94,Siteki,-26.45,31.95,55.42,79,100,0.69,SZ,2022-08-02
95,Pilar,-9.5972,-35.9567,75.13,80,96,3.15,BR,2022-08-02
96,Qaanaaq,77.484,-69.3632,45.34,64,98,4.34,GL,2022-08-02
97,Cayenne,4.9333,-52.3333,84.09,1,0,2.3,GF,2022-08-02
98,New Norfolk,-42.7826,147.0587,53.1,56,29,9.8,AU,2022-08-02
99,Inhambane,-23.865,35.3833,69.39,64,100,12.46,MZ,2022-08-02
100,Zhigansk,66.7697,123.3711,56.21,61,85,22.39,RU,2022-08-02
101,Buta,2.7858,24.73,66.69,99,100,1.41,CD,2022-08-02
102,Barrow,71.2906,-156.7887,39.22,81,100,11.5,US,2022-08-02
103,Khovd,48.0056,91.6419,67.84,35,100,5.01,MN,2022-08-02
104,Ahipara,-35.1667,173.1667,58.98,61,100,7.45,NZ,2022-08-02
105,Camacupa,-12.0167,17.4833,62.11,40,71,3.33,AO,2022-08-02
106,Turbat,26.0023,63.044,82.6,85,100,3.6,PK,2022-08-02
107,Port Lincoln,-34.7333,135.8667,56.46,53,100,28.16,AU,2022-08-02
108,Marawi,7.9986,124.2928,77.74,73,100,2.86,PH,2022-08-02
109,Tanete,-3.9443,119.7848,80.29,81,68,7.36,ID,2022-08-02
110,Marabu,4.4148,114.0089,78.94,89,20,8.05,MY,2022-08-02
111,Port Pirie,-33.1833,138.0167,61.47,38,99,22.86,AU,2022-08-02
112,Ponta do Sol,32.6667,-17.1,71.01,77,4,4.61,PT,2022-08-02
113,Yellowknife,62.456,-114.3525,68.56,34,75,11.5,CA,2022-08-02
114,Atuona,-9.8,-139.0333,77.83,70,65,14.09,PF,2022-08-02
115,Turukhansk,65.8167,87.9833,54.75,57,98,10.94,RU,2022-08-02
116,Broome,42.2506,-75.833,77.85,72,0,8.05,US,2022-08-02
117,Klyuchi,52.2667,79.1667,60.37,87,49,8.97,RU,2022-08-02
118,Longyearbyen,78.2186,15.6401,49.84,87,75,2.3,SJ,2022-08-02
119,Pochutla,15.7432,-96.4661,78.94,81,11,3.58,MX,2022-08-02
120,Albany,42.6001,-73.9662,78.46,65,42,1.99,US,2022-08-02
121,Bisira,8.5196,-81.7115,61.65,96,100,1.99,PA,2022-08-02
122,Bairiki Village,1.3292,172.9752,86.0,66,40,16.11,KI,2022-08-02
123,Baruun-Urt,46.6806,113.2792,74.19,61,17,6.17,MN,2022-08-02
124,Hirara,24.8,125.2833,85.86,89,40,9.22,JP,2022-08-02
125,Tanout,14.9709,8.8879,79.88,62,100,10.69,NE,2022-08-02
126,Chaman,30.9236,66.4512,77.59,42,4,7.78,PK,2022-08-02
127,Norman Wells,65.282,-126.8329,75.24,38,20,9.22,CA,2022-08-02
128,San Luis,-33.295,-66.3356,55.78,38,51,4.43,AR,2022-08-02
129,Ribeira Grande,38.5167,-28.7,74.61,72,3,10.36,PT,2022-08-02
130,Jesús de Otoro,14.4833,-87.9833,80.26,95,99,0.25,HN,2022-08-02
131,Klaksvík,62.2266,-6.589,49.12,90,100,11.86,FO,2022-08-02
132,Kiryat Gat,31.61,34.7642,79.39,100,0,2.3,IL,2022-08-02
133,Lázaro Cárdenas,17.9583,-102.2,83.41,80,100,7.07,MX,2022-08-02
134,Bindura,-17.3019,31.3306,47.88,79,0,1.95,ZW,2022-08-02
135,Caiapônia,-16.9567,-51.8103,67.08,31,0,2.42,BR,2022-08-02
136,Port Blair,11.6667,92.75,78.84,94,40,9.22,IN,2022-08-02
137,Iqaluit,63.7506,-68.5145,49.73,81,75,2.3,CA,2022-08-02
138,Nelson Bay,-32.7167,152.15,60.1,66,0,8.99,AU,2022-08-02
139,Njombe,-9.3333,34.7667,46.4,87,0,5.97,TZ,2022-08-02
140,Bandarbeyla,9.4942,50.8122,76.35,75,92,25.68,SO,2022-08-02
141,Haren,52.7833,7.2333,53.35,93,99,0.0,DE,2022-08-02
142,Nicoya,10.1483,-85.452,76.06,90,100,3.04,CR,2022-08-02
143,Kirkenes,69.7271,30.0458,58.15,94,100,2.3,NO,2022-08-02
144,Vágur,61.4732,-6.8119,51.01,91,100,15.01,FO,2022-08-02
145,Namatanai,-3.6667,152.4333,82.78,73,93,10.49,PG,2022-08-02
146,Bengkulu,-3.8004,102.2655,76.82,89,84,4.14,ID,2022-08-02
147,Hervey Bay,-25.2986,152.8535,67.01,84,93,3.0,AU,2022-08-02
148,Clyde River,70.4692,-68.5914,37.63,100,100,6.91,CA,2022-08-02
149,Chokurdakh,70.6333,147.9167,56.71,63,82,7.76,RU,2022-08-02
150,Gimli,50.6336,-96.9907,64.92,67,12,9.75,CA,2022-08-02
151,Visnes,59.3556,5.2242,56.21,71,20,14.97,NO,2022-08-02
152,Tiarei,-17.5333,-149.3333,82.0,72,3,22.73,PF,2022-08-02
153,Leningradskiy,69.3833,178.4167,56.75,54,57,6.58,RU,2022-08-02
154,Bambous Virieux,-20.3428,57.7575,66.45,94,40,6.91,MU,2022-08-02
155,Provideniya,64.3833,-173.3,50.11,76,75,11.18,RU,2022-08-02
156,Port Elizabeth,-33.918,25.5701,49.32,87,0,3.44,ZA,2022-08-02
157,East London,-33.0153,27.9116,55.67,69,11,8.9,ZA,2022-08-02
158,San Policarpo,12.1791,125.5072,79.84,89,100,1.48,PH,2022-08-02
159,Sergeevka,53.88,67.4158,60.94,88,100,9.13,KZ,2022-08-02
160,Elko,41.0002,-115.5012,73.42,72,100,3.8,US,2022-08-02
161,Souillac,-20.5167,57.5167,66.58,94,40,6.91,MU,2022-08-02
162,Yuncheng,35.0231,110.9928,84.43,58,0,6.55,CN,2022-08-02
163,Tuktoyaktuk,69.4541,-133.0374,53.6,87,75,16.11,CA,2022-08-02
164,Lüderitz,-26.6481,15.1594,52.79,79,4,2.21,NA,2022-08-02
165,Naze,28.3667,129.4833,83.32,81,83,10.98,JP,2022-08-02
166,Changping,40.2186,116.2197,85.64,63,5,4.09,CN,2022-08-02
167,Adrar,20.5022,-10.0711,86.38,37,79,10.58,MR,2022-08-02
168,River Falls,44.8614,-92.6238,83.52,51,5,2.57,US,2022-08-02
169,Chissamba,-12.1667,17.3333,62.65,41,25,4.9,AO,2022-08-02
170,Kavieng,-2.5744,150.7967,82.33,79,96,14.38,PG,2022-08-02
171,Airai,-8.9266,125.4092,68.77,52,27,2.75,TL,2022-08-02
172,Mount Gambier,-37.8333,140.7667,52.77,63,100,13.0,AU,2022-08-02
173,Quang Ngai,15.1167,108.8,84.4,68,100,2.8,VN,2022-08-02
174,Egvekinot,66.3167,-179.1667,56.88,46,7,5.5,RU,2022-08-02
175,Bethel,41.3712,-73.414,73.36,90,52,4.16,US,2022-08-02
176,Vao,-22.6667,167.4833,72.09,87,13,17.27,NC,2022-08-02
177,Calama,-22.4667,-68.9333,55.89,16,0,9.22,CL,2022-08-02
178,Colombo,6.9319,79.8478,80.55,83,96,20.07,LK,2022-08-02
179,Kaitong,44.8135,123.15,86.16,66,79,7.27,CN,2022-08-02
180,Mehamn,71.0357,27.8492,49.95,100,6,2.3,NO,2022-08-02
181,Upernavik,72.7868,-56.1549,45.18,70,100,1.28,GL,2022-08-02
182,Puerto Ayora,-0.7393,-90.3518,69.55,93,85,8.01,EC,2022-08-02
183,Épinal,48.1833,6.45,60.35,84,96,1.54,FR,2022-08-02
184,Dingle,10.9995,122.6711,82.49,77,91,3.53,PH,2022-08-02
185,Chongwe,-15.3292,28.682,58.1,63,0,9.86,ZM,2022-08-02
186,Pevek,69.7008,170.3133,50.45,62,100,16.11,RU,2022-08-02
187,Buala,-8.145,159.5921,84.13,70,44,9.75,SB,2022-08-02
188,Castro,-24.7911,-50.0119,60.39,70,100,1.72,BR,2022-08-02
189,Torres,-29.3353,-49.7269,61.83,86,66,2.75,BR,2022-08-02
190,Sioux Lookout,50.1001,-91.917,64.47,77,100,6.91,CA,2022-08-02
191,Sibu,2.3,111.8167,75.51,88,40,3.44,MY,2022-08-02
192,Yinchuan,38.4681,106.2731,81.19,54,99,9.73,CN,2022-08-02
193,Taoudenni,22.6783,-3.9836,100.38,8,0,10.58,ML,2022-08-02
194,Kruisfontein,-34.0033,24.7314,48.67,57,100,4.97,ZA,2022-08-02
195,Calvià,39.5657,2.5062,78.93,61,44,3.78,ES,2022-08-02
196,‘Āhuimanu,21.4447,-157.8378,83.91,59,40,19.57,US,2022-08-02
197,Wajima,37.4,136.9,90.28,62,0,12.66,JP,2022-08-02
198,Te Anau,-45.4167,167.7167,50.34,78,57,10.04,NZ,2022-08-02
199,Cherskiy,68.75,161.3,67.91,48,100,12.73,RU,2022-08-02
200,Saldanha,-33.0117,17.9442,42.85,69,0,9.55,ZA,2022-08-02
201,Mahibadhoo,3.7833,72.9667,82.2,74,100,19.04,MV,2022-08-02
202,Tulancingo,20.0833,-98.3667,58.12,95,97,4.25,MX,2022-08-02
203,Burnie,-41.0667,145.9167,51.94,77,100,11.79,AU,2022-08-02
204,Port Shepstone,-30.7414,30.455,58.17,82,63,10.13,ZA,2022-08-02
205,Moree,-29.4667,149.85,55.42,94,100,6.91,AU,2022-08-02
206,Manyana,-23.4,21.7167,54.55,68,95,20.33,BW,2022-08-02
207,Altay,47.8667,88.1167,72.19,36,42,0.43,CN,2022-08-02
208,Santa Marta,11.2408,-74.199,86.05,70,75,4.61,CO,2022-08-02
209,Barsovo,61.1667,73.1667,53.73,69,8,6.96,RU,2022-08-02
210,Yulara,-25.2406,130.9889,68.88,24,100,20.54,AU,2022-08-02
211,Mogadishu,2.0371,45.3438,75.58,78,2,16.46,SO,2022-08-02
212,Fare,-16.7,-151.0167,78.51,68,0,21.54,PF,2022-08-02
213,Sovetskiy,61.3614,63.5842,55.78,62,8,3.47,RU,2022-08-02
214,West Bay,19.3667,-81.4167,86.07,82,20,10.36,KY,2022-08-02
215,Jizan,17.3333,42.6667,81.54,65,100,5.37,SA,2022-08-02
216,Fangshan,39.6983,115.9925,86.9,65,7,3.51,CN,2022-08-02
217,Bereket,39.2446,55.5154,85.84,36,0,4.29,TM,2022-08-02
218,Abancay,-13.6339,-72.8814,57.24,84,99,5.1,PE,2022-08-02
219,Ucluelet,48.9329,-125.5528,61.11,86,42,3.56,CA,2022-08-02
220,Tautira,-17.7333,-149.15,77.32,73,8,22.06,PF,2022-08-02
221,Mosquera,4.7059,-74.2302,57.29,88,75,5.75,CO,2022-08-02
222,Isla Vista,34.4133,-119.861,89.35,48,56,7.27,US,2022-08-02
223,Eydhafushi,5.1033,73.0708,81.0,76,100,21.47,MV,2022-08-02
224,San Jose,37.3394,-121.895,89.92,43,75,11.5,US,2022-08-02
225,Birao,10.2849,22.7882,70.09,96,100,4.14,CF,2022-08-02
226,Fort Morgan,40.2503,-103.8,94.42,23,15,3.53,US,2022-08-02
227,São João da Barra,-21.6403,-41.0511,71.08,87,0,15.77,BR,2022-08-02
228,Ciudad Bolivar,8.1222,-63.5497,77.86,85,100,10.6,VE,2022-08-02
229,Belyy Yar,53.6039,91.3903,64.85,88,20,2.24,RU,2022-08-02
230,Laguna,38.421,-121.4238,89.17,51,0,11.5,US,2022-08-02
231,North Platte,41.1239,-100.7654,98.11,26,0,9.22,US,2022-08-02
232,Jumla,29.2747,82.1838,62.85,96,99,0.0,NP,2022-08-02
233,Kitami,43.8031,143.8908,63.12,97,100,4.81,JP,2022-08-02
234,Safranbolu,41.2508,32.6942,61.45,85,0,1.1,TR,2022-08-02
235,Saint-Pierre,-21.3393,55.4781,65.91,60,0,8.05,RE,2022-08-02
236,Toropets,56.4978,31.6353,59.9,86,100,7.18,RU,2022-08-02
237,Roebourne,-20.7833,117.1333,73.42,73,100,11.1,AU,2022-08-02
238,Bonito,-21.1211,-56.4819,73.27,40,3,3.78,BR,2022-08-02
239,Saint Anthony,45.0205,-93.218,83.35,45,0,11.5,US,2022-08-02
240,Ushtobe,45.2514,77.9838,72.41,55,58,4.32,KZ,2022-08-02
241,São Miguel do Araguaia,-13.275,-50.1628,74.57,22,0,5.35,BR,2022-08-02
242,Vestmanna,62.1564,-7.1664,47.32,100,100,10.36,FO,2022-08-02
243,Catuday,16.2923,119.8062,78.67,80,100,10.11,PH,2022-08-02
244,La Ronge,55.1001,-105.2842,71.85,40,75,5.75,CA,2022-08-02
245,Coari,-4.085,-63.1414,74.01,95,89,1.86,BR,2022-08-02
246,Banjar,-8.19,114.9675,83.34,69,99,2.1,ID,2022-08-02
247,Hailar,49.2,119.7,77.74,49,0,8.32,CN,2022-08-02
248,Barrhead,55.7992,-4.3929,65.73,90,100,14.97,GB,2022-08-02
249,Lata,40.1629,-8.3327,66.52,77,0,1.28,PT,2022-08-02
250,Laas,46.6166,10.7002,60.37,81,100,3.71,IT,2022-08-02
251,Progreso,21.2833,-89.6667,80.11,83,36,14.88,MX,2022-08-02
252,Batagay,67.6333,134.6333,54.81,93,100,6.17,RU,2022-08-02
253,Werda,-25.2667,23.2833,55.22,71,43,23.51,BW,2022-08-02
254,Alice Springs,-23.7,133.8833,67.55,32,100,17.27,AU,2022-08-02
255,Porto Walter,-8.2686,-72.7439,73.65,92,97,1.77,BR,2022-08-02
256,Shimoda,34.6667,138.95,86.36,79,100,13.85,JP,2022-08-02
257,Khatanga,71.9667,102.5,46.67,72,100,6.22,RU,2022-08-02
258,Guidonia,42.0167,12.75,78.57,75,0,3.96,IT,2022-08-02
259,Hithadhoo,-0.6,73.0833,80.47,72,58,14.32,MV,2022-08-02
260,Nhulunbuy,-12.2333,136.7667,81.21,74,40,16.11,AU,2022-08-02
261,Limbang,4.75,115.0,80.71,80,100,1.59,MY,2022-08-02
262,Poum,-20.2333,164.0167,76.06,81,18,12.59,NC,2022-08-02
263,San Ramon,37.7799,-121.978,89.42,40,20,12.66,US,2022-08-02
264,Ilulissat,69.2167,-51.1,51.82,58,40,2.3,GL,2022-08-02
265,Aitape,-3.1374,142.3475,86.14,65,88,8.55,PG,2022-08-02
266,Floirac,44.8324,-0.5141,66.9,83,0,3.44,FR,2022-08-02
267,Honiara,-9.4333,159.95,88.34,59,51,9.37,SB,2022-08-02
268,Saint George,37.1041,-113.5841,97.39,29,0,11.5,US,2022-08-02
269,Mount Isa,-20.7333,139.5,76.77,33,0,11.5,AU,2022-08-02
270,Havøysund,70.9963,24.6622,48.43,81,0,7.07,NO,2022-08-02
271,Bulgan,48.8125,103.5347,69.71,68,19,3.85,MN,2022-08-02
272,Swan Hill,-35.3378,143.5544,57.61,42,89,14.94,AU,2022-08-02
273,George Town,5.4112,100.3354,81.9,90,20,3.44,MY,2022-08-02
274,Cidreira,-30.1811,-50.2056,57.43,85,32,2.77,BR,2022-08-02
275,Neuquén,-38.9516,-68.0591,44.49,76,0,0.0,AR,2022-08-02
276,Calabar,4.9517,8.322,71.33,93,100,2.53,NG,2022-08-02
277,Carutapera,-1.195,-46.02,75.0,95,100,5.23,BR,2022-08-02
278,Bettiah,26.8,84.5,78.49,93,100,6.64,IN,2022-08-02
279,Salalah,17.0151,54.0924,77.09,88,75,5.75,OM,2022-08-02
280,Kérouané,9.2667,-9.0167,67.95,98,60,4.65,GN,2022-08-02
281,Nanortalik,60.1432,-45.2371,45.36,76,100,8.59,GL,2022-08-02
282,Lugovoy,42.9472,72.7644,71.51,44,92,4.83,KZ,2022-08-02
283,Tual,-5.6667,132.75,79.59,83,92,16.46,ID,2022-08-02
284,Beringovskiy,63.05,179.3167,54.99,65,13,8.88,RU,2022-08-02
285,Rudnya,54.947,31.0934,58.71,88,92,6.46,RU,2022-08-02
286,Salekhard,66.53,66.6019,54.86,68,38,3.74,RU,2022-08-02
287,Mersing,2.4312,103.8405,75.11,100,40,5.75,MY,2022-08-02
288,Acajutla,13.5928,-89.8275,82.18,83,88,5.93,SV,2022-08-02
289,Yerbogachën,61.2767,108.0108,72.12,67,70,4.9,RU,2022-08-02
290,Tiznit Province,29.5833,-9.5,88.07,25,98,0.22,MA,2022-08-02
291,Manokwari,-0.8667,134.0833,82.96,69,97,6.73,ID,2022-08-02
292,Tadine,-21.55,167.8833,76.89,76,7,15.55,NC,2022-08-02
293,Oktyabr'skoye,43.0645,44.7417,62.74,88,2,2.24,RU,2022-08-02
294,Decatur,39.8403,-88.9548,84.06,71,0,8.03,US,2022-08-02
295,Buin,-33.7333,-70.75,53.74,89,2,1.9,CL,2022-08-02
296,Westport,41.1415,-73.3579,73.74,91,0,8.05,US,2022-08-02
297,Ayan,56.45,138.1667,57.25,98,100,16.49,RU,2022-08-02
298,Emba,48.8264,58.1442,67.48,67,96,6.69,KZ,2022-08-02
299,Iracoubo,5.4802,-53.2011,78.03,82,53,6.15,GF,2022-08-02
300,Husavik,66.0449,-17.3389,43.0,93,100,4.97,IS,2022-08-02
301,Nara,34.6851,135.8049,92.97,43,100,5.57,JP,2022-08-02
302,Beyneu,45.3167,55.2,80.17,43,6,7.11,KZ,2022-08-02
303,Cícero Dantas,-10.6,-38.3833,61.56,93,0,3.42,BR,2022-08-02
304,Fortuna,40.5982,-124.1573,70.93,73,20,12.66,US,2022-08-02
305,Middletown,39.5151,-84.3983,80.46,83,75,5.75,US,2022-08-02
306,Pisco,-13.7,-76.2167,60.85,82,0,12.66,PE,2022-08-02
307,Walvis Bay,-22.9575,14.5053,49.08,73,0,6.51,NA,2022-08-02
308,Ishigaki,24.3448,124.1572,82.53,89,75,6.91,JP,2022-08-02
309,Abu Dhabi,24.4667,54.3667,96.91,36,0,5.75,AE,2022-08-02
310,Grindavik,63.8424,-22.4338,46.87,76,75,21.85,IS,2022-08-02
311,Sur,22.5667,59.5289,87.06,65,11,7.2,OM,2022-08-02
312,Donskoye,45.4552,41.9741,73.53,40,47,7.61,RU,2022-08-02
313,Grand Gaube,-20.0064,57.6608,66.6,72,8,15.17,MU,2022-08-02
314,Flinders,-34.5833,150.8552,64.06,51,0,4.0,AU,2022-08-02
315,Praia,14.9215,-23.5087,75.74,83,20,2.3,CV,2022-08-02
316,Salym,60.0625,71.4789,54.03,71,0,5.5,RU,2022-08-02
317,Tucumcari,35.1717,-103.725,85.84,39,0,12.66,US,2022-08-02
318,Wuwei,37.9281,102.6414,75.11,57,100,10.22,CN,2022-08-02
319,Marrakesh,31.6315,-8.0083,96.87,20,20,3.44,MA,2022-08-02
320,Burns Lake,54.2331,-125.7533,69.22,31,7,10.87,CA,2022-08-02
321,Luwingu,-10.2621,29.9271,53.64,64,0,5.77,ZM,2022-08-02
322,Capoterra,39.1763,8.9718,79.54,73,0,5.75,IT,2022-08-02
323,Grão Mogol,-16.5594,-42.8897,64.45,64,30,4.09,BR,2022-08-02
324,Road Town,18.4167,-64.6167,84.29,89,40,11.5,VG,2022-08-02
325,College,64.8569,-147.8028,75.18,50,75,5.75,US,2022-08-02
326,Bagdarin,54.4333,113.6,67.53,70,0,0.29,RU,2022-08-02
327,Port Moresby,-9.4431,147.1797,85.42,66,40,5.14,PG,2022-08-02
328,Saint-Philippe,-21.3585,55.7679,65.79,74,0,3.06,RE,2022-08-02
329,Hammerfest,70.6634,23.6821,55.85,76,0,3.44,NO,2022-08-02
330,Coahuayana Viejo,18.7333,-103.6833,83.82,78,71,4.12,MX,2022-08-02
331,Falam,22.9167,93.6833,66.76,90,100,1.36,MM,2022-08-02
332,Porto Velho,-8.7619,-63.9039,80.65,69,0,0.0,BR,2022-08-02
333,Garden City,42.3256,-83.331,82.42,59,40,13.8,US,2022-08-02
334,Seoul,37.5683,126.9778,82.0,89,100,10.36,KR,2022-08-02
335,Somanda,-3.3667,33.95,67.46,63,69,12.17,TZ,2022-08-02
336,Ancud,-41.8697,-73.8203,42.22,80,6,3.65,CL,2022-08-02
337,Mahenge,-8.6833,36.7167,58.5,71,44,1.61,TZ,2022-08-02
338,Praia da Vitória,38.7333,-27.0667,72.75,88,20,4.65,PT,2022-08-02
339,Terrace,54.5163,-128.6035,71.51,46,75,9.22,CA,2022-08-02
340,Shenjiamen,29.9576,122.298,84.02,83,90,11.77,CN,2022-08-02
341,Pundaguitan,6.3711,126.1689,82.62,73,88,9.53,PH,2022-08-02
342,Karasjok,69.4719,25.5112,52.59,82,0,3.94,NO,2022-08-02
343,Miguel Auza,24.2933,-103.4503,72.14,43,87,7.56,MX,2022-08-02
344,Brae,60.3964,-1.353,53.94,91,100,9.08,GB,2022-08-02
345,Codrington,-38.2667,141.9667,53.15,68,100,16.62,AU,2022-08-02
346,Mpika,-11.8343,31.4529,51.73,77,0,5.14,ZM,2022-08-02
347,Umluj,25.0213,37.2685,83.35,66,23,1.7,SA,2022-08-02
348,Jieshi,22.8134,115.8257,84.99,75,100,3.44,CN,2022-08-02
349,Fuerte Olimpo,-21.0415,-57.8738,76.8,35,0,5.17,PY,2022-08-02
350,Ketchikan,55.3422,-131.6461,70.27,52,40,10.36,US,2022-08-02
351,Vangaindrano,-23.35,47.6,65.23,89,39,8.21,MG,2022-08-02
352,Şarkîkaraağaç,38.0794,31.3664,64.72,73,0,5.23,TR,2022-08-02
353,Soyo,-6.1349,12.3689,68.31,92,1,8.32,AO,2022-08-02
354,São Filipe,14.8961,-24.4956,76.08,84,37,7.87,CV,2022-08-02
355,Tarpa,48.1048,22.5374,59.9,86,4,4.38,HU,2022-08-02
356,Charter Township of Clinton,42.587,-82.9199,82.92,64,40,14.97,US,2022-08-02
357,Xichang,27.8964,102.2634,69.8,90,90,1.05,CN,2022-08-02
358,Rosarito,32.3333,-117.0333,84.67,65,100,8.32,MX,2022-08-02
359,Khani,41.9563,42.9566,65.77,97,98,0.83,GE,2022-08-02
360,Saint-Augustin,51.226,-58.6502,61.0,89,6,7.52,CA,2022-08-02
361,Chernyshevskiy,63.0128,112.4714,64.83,75,78,6.17,RU,2022-08-02
362,Huéscar,37.811,-2.5412,70.12,56,0,2.15,ES,2022-08-02
363,Jászkarajenő,47.05,20.0667,65.12,71,0,0.0,HU,2022-08-02
364,Valdosta,30.8327,-83.2785,87.75,72,75,6.91,US,2022-08-02
365,Caravelas,-17.7125,-39.2481,70.03,86,4,5.23,BR,2022-08-02
366,Voi,-3.3945,38.563,67.44,78,65,8.75,KE,2022-08-02
367,Numazu,35.1,138.8667,86.25,76,100,5.88,JP,2022-08-02
368,Omsukchan,62.5333,155.8,60.66,61,100,9.19,RU,2022-08-02
369,Tessalit,20.1986,1.0114,93.34,26,5,13.44,ML,2022-08-02
370,Kirakira,-10.4544,161.9205,84.94,69,9,10.85,SB,2022-08-02
371,Neiafu,-18.65,-173.9833,83.08,74,40,10.36,TO,2022-08-02
372,Vanimo,-2.6741,141.3028,84.74,68,100,8.03,PG,2022-08-02
373,Coyhaique,-45.5752,-72.0662,37.35,75,0,4.61,CL,2022-08-02
374,Chumikan,54.7183,135.315,55.78,98,100,3.09,RU,2022-08-02
375,San Fernando del Valle de Catamarca,-28.4696,-65.7852,61.59,38,9,11.43,AR,2022-08-02
376,Huarmey,-10.0681,-78.1522,62.76,86,57,10.38,PE,2022-08-02
377,Preeceville,51.95,-102.6677,65.88,65,4,6.35,CA,2022-08-02
378,Harper,4.375,-7.7169,75.31,74,100,10.02,LR,2022-08-02
379,Ossora,59.2353,163.0719,59.77,71,100,4.83,RU,2022-08-02
380,Padang,-0.9492,100.3543,77.05,85,100,5.46,ID,2022-08-02
381,Mutum,-19.8,-41.4383,65.46,81,0,1.25,BR,2022-08-02
382,Gezing,47.9178,13.1299,66.45,68,75,4.61,AT,2022-08-02
383,Trofors,65.5333,13.4063,46.27,94,100,3.47,NO,2022-08-02
384,Puerto Baquerizo Moreno,-0.9,-89.6,69.33,80,96,12.64,EC,2022-08-02
385,Porto Belo,-27.1578,-48.5531,61.16,93,4,1.99,BR,2022-08-02
386,Luena,-11.7833,19.9167,56.08,43,2,2.21,AO,2022-08-02
387,Iğdır,39.9237,44.045,78.73,53,0,0.0,TR,2022-08-02
388,Kangaatsiaq,68.3065,-53.4641,44.37,92,99,10.78,GL,2022-08-02
389,Awjilah,29.1081,21.2869,78.48,65,0,9.06,LY,2022-08-02
390,Glodeni,47.7708,27.5144,63.1,90,100,13.04,MD,2022-08-02
391,Bukama,-9.2,25.85,70.57,39,0,2.46,CD,2022-08-02
392,Jaca,42.569,-0.5499,71.98,72,6,3.15,ES,2022-08-02
393,Antioquia,7.0,-75.5,54.34,99,100,3.18,CO,2022-08-02
394,Vryburg,-26.9566,24.7284,53.08,76,0,17.38,ZA,2022-08-02
395,Cap Malheureux,-19.9842,57.6142,71.65,72,10,15.3,MU,2022-08-02
396,Dubai,25.2582,55.3047,98.53,32,0,4.61,AE,2022-08-02
397,Portland,45.5234,-122.6762,91.83,47,20,8.05,US,2022-08-02
398,Biloela,-24.4167,150.5,66.96,66,100,2.46,AU,2022-08-02
399,Christchurch,-43.5333,172.6333,64.6,40,100,8.05,NZ,2022-08-02
400,Kamenka,51.3223,42.7678,61.77,81,31,8.14,RU,2022-08-02
401,Talnakh,69.4865,88.3972,47.21,62,14,13.04,RU,2022-08-02
402,Shingū,33.7333,135.9833,89.2,58,100,2.51,JP,2022-08-02
403,Alekseyevsk,57.8406,108.3492,70.77,78,60,3.62,RU,2022-08-02
404,Romitan,39.9343,64.3814,76.95,41,0,9.22,UZ,2022-08-02
405,Erenhot,43.6475,111.9767,74.66,68,13,6.44,CN,2022-08-02
406,Roald,62.5833,6.1333,55.76,87,30,8.05,NO,2022-08-02
407,Cooma,-36.2333,149.1333,51.22,51,5,10.65,AU,2022-08-02
408,Dehlorān,32.6941,47.2679,93.38,36,1,2.62,IR,2022-08-02
409,Yeniseysk,58.4497,92.1703,53.53,83,42,6.93,RU,2022-08-02
410,Teya,60.3778,92.6267,52.05,88,100,3.06,RU,2022-08-02
411,Narsaq,60.9167,-46.05,50.22,69,100,3.02,GL,2022-08-02
412,‘Ewa Beach,21.3156,-158.0072,84.15,55,40,19.57,US,2022-08-02
413,Tevaitoa,-16.7833,-151.5,78.31,68,0,21.54,PF,2022-08-02
414,Nanyang,32.9947,112.5328,87.12,57,0,3.53,CN,2022-08-02
415,Isangel,-19.55,169.2667,84.31,79,75,6.91,VU,2022-08-02
416,Asău,46.4333,26.4,65.32,94,83,3.8,RO,2022-08-02
417,Kabalo,-6.05,26.9167,72.55,78,4,3.0,CD,2022-08-02
418,Urubichá,-15.3833,-62.95,74.05,48,10,2.71,BO,2022-08-02
419,Tekeli,44.83,78.8239,63.27,64,63,5.5,KZ,2022-08-02
420,Hoima,1.4356,31.3436,63.07,99,100,3.06,UG,2022-08-02
421,Bathsheba,13.2167,-59.5167,83.01,87,40,20.71,BB,2022-08-02
422,Ust-Maya,60.4167,134.5333,70.21,66,100,10.0,RU,2022-08-02
423,Manoel Urbano,-8.8389,-69.2597,76.98,66,8,2.3,BR,2022-08-02
424,Svobodnyy,51.4,128.1333,81.66,56,6,10.04,RU,2022-08-02
425,Luanda,-8.8368,13.2343,66.2,88,40,9.22,AO,2022-08-02
426,Smithers,54.7804,-127.1743,71.92,40,40,9.22,CA,2022-08-02
427,Piraju,-23.1936,-49.3839,65.39,55,0,4.47,BR,2022-08-02
428,Issenye,-2.0,34.3333,66.85,63,70,5.66,TZ,2022-08-02
429,Pyshma,56.9523,63.2513,54.66,87,100,5.75,RU,2022-08-02
430,Tura,25.5198,90.2201,76.24,94,100,2.95,IN,2022-08-02
431,Point Fortin,10.1833,-61.6833,80.85,80,41,11.79,TT,2022-08-02
432,Kutum,14.2,24.6667,71.06,73,100,4.41,SD,2022-08-02
433,Puerto Escondido,15.85,-97.0667,81.84,80,41,4.61,MX,2022-08-02
434,Hay River,60.8156,-115.7999,66.16,55,20,12.66,CA,2022-08-02
435,Behat,30.1667,77.6167,78.44,87,5,2.44,IN,2022-08-02
436,New Amsterdam,6.25,-57.5167,73.53,98,100,3.13,GY,2022-08-02
437,Csongrád,46.7133,20.1424,65.14,96,6,3.0,HU,2022-08-02
438,Half Moon Bay,37.4636,-122.4286,87.58,65,0,16.11,US,2022-08-02
439,Novoagansk,61.9449,76.6625,52.86,66,11,10.65,RU,2022-08-02
440,Taltal,-25.4,-70.4833,56.39,84,15,3.06,CL,2022-08-02
441,Oddur,4.1213,43.8894,68.13,76,0,17.67,SO,2022-08-02
442,Warman,52.3168,-106.5679,77.09,50,75,11.5,CA,2022-08-02
443,Waddān,29.1614,16.139,79.63,60,0,3.6,LY,2022-08-02
444,Alta,69.9689,23.2717,51.06,93,0,2.3,NO,2022-08-02
445,Magistral'nyy,56.1725,107.4458,68.72,80,100,2.37,RU,2022-08-02
446,Whitehorse,60.7161,-135.0538,71.02,50,75,13.8,CA,2022-08-02
447,Kavaratti,10.5669,72.642,77.22,88,100,27.45,IN,2022-08-02
448,Ust-Nera,64.5667,143.2,75.94,52,100,6.85,RU,2022-08-02
449,Peña Blanca,15.5333,-88.05,79.36,95,75,4.61,HN,2022-08-02
450,Oyama,36.3,139.8,93.58,48,100,2.68,JP,2022-08-02
451,Kenora,49.8167,-94.4337,67.17,88,75,6.91,CA,2022-08-02
452,Yumen,40.2833,97.2,72.01,49,75,12.82,CN,2022-08-02
453,Katsuura,35.1333,140.3,86.68,73,100,11.65,JP,2022-08-02
454,Arrondissement d'Ajaccio,42.0,8.9167,71.65,64,0,5.75,FR,2022-08-02
455,Norrtälje,59.758,18.705,63.84,85,97,4.99,SE,2022-08-02
456,Totness,5.8833,-56.3167,77.47,87,63,7.38,SR,2022-08-02
457,Muzhi,65.3667,64.6667,54.81,71,26,3.71,RU,2022-08-02
458,Dergachi,51.2328,48.7659,66.69,80,16,9.98,RU,2022-08-02
459,Kimbe,-5.5502,150.1429,91.42,50,7,3.33,PG,2022-08-02
460,Katherine,-14.4667,132.2667,80.92,47,64,3.44,AU,2022-08-02
461,Ilo,-17.6394,-71.3375,57.36,82,23,1.41,PE,2022-08-02
462,Itoman,26.1247,127.6694,87.82,76,20,12.66,JP,2022-08-02
463,Oriximiná,-1.7656,-55.8661,75.6,89,86,3.58,BR,2022-08-02
464,Pinyug,60.251,47.7842,52.95,94,60,2.13,RU,2022-08-02
465,Hofn,64.2539,-15.2082,49.37,73,84,7.34,IS,2022-08-02
466,Amposta,40.7131,0.581,77.23,81,0,2.95,ES,2022-08-02
467,Nālūt,30.3333,10.85,83.7,29,0,11.59,LY,2022-08-02
468,Najrān,17.4924,44.1277,68.65,62,100,6.6,SA,2022-08-02
469,Pokhara,28.2333,83.9833,71.33,98,100,1.66,NP,2022-08-02
470,Dudinka,69.4058,86.1778,47.62,68,71,15.12,RU,2022-08-02
471,Grajaú,-5.8194,-46.1386,76.44,53,7,3.11,BR,2022-08-02
472,Dannenberg,53.0967,11.09,57.15,81,11,4.61,DE,2022-08-02
473,Makakilo City,21.3469,-158.0858,82.72,54,75,19.57,US,2022-08-02
474,Bacolod City,10.6667,122.95,82.27,77,100,3.44,PH,2022-08-02
475,Sinegor'ye,62.0788,150.477,66.92,61,65,4.99,RU,2022-08-02
476,Aykhal,66.0,111.5,47.89,88,100,19.04,RU,2022-08-02
477,Gushikawa,26.3544,127.8686,87.03,79,75,10.36,JP,2022-08-02
478,Békéssámson,46.4167,20.6333,58.98,60,8,3.85,HU,2022-08-02
479,Zyryanovsk,49.7386,84.2719,60.73,82,99,1.61,KZ,2022-08-02
480,Wasilla,61.5814,-149.4394,58.73,92,100,10.36,US,2022-08-02
481,Camargo,27.6667,-105.1667,90.54,20,1,17.56,MX,2022-08-02
482,Hof,50.3167,11.9167,61.75,85,51,5.75,DE,2022-08-02
483,Kununurra,-15.7667,128.7333,76.98,44,0,2.3,AU,2022-08-02
484,Evanston,42.0411,-87.6901,82.96,55,40,12.66,US,2022-08-02
485,Cabo San Lucas,22.8909,-109.9124,90.61,54,40,17.27,MX,2022-08-02
486,Los Llanos de Aridane,28.6585,-17.9182,71.13,81,0,17.27,ES,2022-08-02
487,San Andrés,12.5847,-81.7006,80.62,89,75,13.8,CO,2022-08-02
488,Saint Charles,38.7667,-90.7335,92.57,62,0,4.74,US,2022-08-02
489,Fuyu,45.1833,124.8167,84.87,73,99,9.04,CN,2022-08-02
490,Lagoa,39.05,-27.9833,73.78,77,49,11.12,PT,2022-08-02
491,Tūkrah,32.5341,20.5791,78.89,73,0,11.7,LY,2022-08-02
492,Sola,-13.8833,167.55,84.87,79,75,5.75,VU,2022-08-02
493,Basoko,1.2391,23.616,70.03,92,99,3.78,CD,2022-08-02
494,Verāval,20.9,70.3667,81.34,82,92,13.62,IN,2022-08-02
495,Havre-St-Pierre,50.2334,-63.5986,64.76,82,75,9.22,CA,2022-08-02
496,Zvishavane,-20.3267,30.0665,55.87,82,100,8.77,ZW,2022-08-02
497,Matara,5.9485,80.5353,78.03,83,98,17.98,LK,2022-08-02
498,Portobelo,9.55,-79.65,78.04,86,100,6.26,PA,2022-08-02
499,Marystown,47.1666,-55.1483,67.86,100,100,5.75,CA,2022-08-02
500,Hasaki,35.7333,140.8333,93.29,68,100,2.91,JP,2022-08-02
501,Jeremoabo,-10.075,-38.4808,62.29,97,0,4.65,BR,2022-08-02
502,Dossor,47.5272,52.9811,78.46,40,1,8.21,KZ,2022-08-02
503,Ruteng,-8.6136,120.4721,70.56,63,81,1.39,ID,2022-08-02
504,Itapecerica,-20.4725,-45.1256,64.54,66,11,0.72,BR,2022-08-02
505,Duvan,55.695,57.9024,58.84,89,100,6.89,RU,2022-08-02
506,Camacha,33.0833,-16.3333,67.42,78,40,11.5,PT,2022-08-02
507,Welver,51.6167,7.9667,59.65,91,82,2.93,DE,2022-08-02
508,Witney,51.7836,-1.4854,69.04,76,75,3.44,GB,2022-08-02
509,Mayo,38.8876,-76.5119,83.28,77,0,8.05,US,2022-08-02
510,Icatu,-2.7758,-44.0658,81.03,93,100,6.17,BR,2022-08-02
511,Spandaryan,40.661,44.0155,64.38,60,0,12.66,AM,2022-08-02
512,Constitución,-35.3333,-72.4167,48.78,83,64,7.31,CL,2022-08-02
513,Maridi,4.9158,29.4742,65.8,99,100,2.66,SS,2022-08-02
514,Green River,41.5286,-109.4662,88.2,25,97,5.99,US,2022-08-02
515,Amahai,-3.3333,128.9167,80.53,79,100,3.89,ID,2022-08-02
516,Kondinskoye,59.6481,67.41,55.06,73,1,5.68,RU,2022-08-02
517,Humaitá,-7.5061,-63.0208,79.02,63,13,2.82,BR,2022-08-02
518,Sambava,-14.2667,50.1667,67.48,83,28,11.54,MG,2022-08-02
519,Río Gallegos,-51.6226,-69.2181,39.25,75,0,4.61,AR,2022-08-02
520,Kinarut,5.8231,116.0466,82.42,88,20,2.3,MY,2022-08-02
521,Okha,53.5739,142.9478,61.97,79,96,19.01,RU,2022-08-02
522,Mokolo,10.7398,13.8019,67.46,95,100,5.55,CM,2022-08-02
523,Nanga Eboko,4.6833,12.3667,65.86,99,100,3.44,CM,2022-08-02
524,La Sarre,48.8002,-79.1996,61.47,97,100,13.53,CA,2022-08-02
525,Ballina,-28.8667,153.5667,66.78,74,0,6.73,AU,2022-08-02
526,Porto-Novo,6.4965,2.6036,73.22,84,99,6.6,BJ,2022-08-02
527,Barcelos,41.5388,-8.6151,76.91,67,0,3.04,PT,2022-08-02
528,Pemangkat,1.1667,108.9667,79.77,84,100,4.72,ID,2022-08-02
529,Araouane,18.9048,-3.5265,97.47,22,13,8.46,ML,2022-08-02
530,Nemuro,43.3236,145.575,58.28,94,100,18.92,JP,2022-08-02
531,Nome,64.5011,-165.4064,64.47,64,75,8.05,US,2022-08-02
532,Longyan,25.1072,117.0225,85.41,67,94,0.81,CN,2022-08-02
533,Nānākuli,21.3906,-158.1547,84.15,54,75,12.66,US,2022-08-02
534,Colares,38.7992,-9.4469,69.78,71,0,11.99,PT,2022-08-02
535,Malanje,-9.5402,16.341,62.82,59,100,5.35,AO,2022-08-02
536,Kaoma,-14.7833,24.8,58.35,43,5,10.98,ZM,2022-08-02
537,Havelock,34.8791,-76.9013,84.18,80,40,6.91,US,2022-08-02
538,Santiago Tuxtla,18.4667,-95.3,75.33,90,12,5.5,MX,2022-08-02
539,Newport,51.5877,-2.9984,68.68,86,100,13.71,GB,2022-08-02
540,Wyndham,37.6985,-77.6125,80.98,90,0,0.0,US,2022-08-02
541,Mineros,-17.1167,-63.2333,71.28,70,2,4.18,BO,2022-08-02
542,Okhotsk,59.3833,143.3,58.89,86,100,3.8,RU,2022-08-02
543,Katangli,51.7102,143.2326,57.22,85,100,12.08,RU,2022-08-02
544,Araranguá,-28.9347,-49.4858,54.21,89,10,2.82,BR,2022-08-02
545,Watrous,51.6668,-105.4679,74.98,50,35,9.22,CA,2022-08-02
546,Ponta Delgada,37.7333,-25.6667,68.72,88,75,3.44,PT,2022-08-02
547,Morehead,37.2711,-87.1764,83.95,81,40,0.0,US,2022-08-02
548,Guerrero Negro,27.9769,-114.0611,78.57,55,0,15.84,MX,2022-08-02
549,Karatuzskoye,53.6072,92.8667,62.83,91,68,4.23,RU,2022-08-02
550,Raja,8.4596,25.678,66.63,94,99,3.6,SS,2022-08-02
551,Ferrol,43.4832,-8.2369,68.52,86,1,8.01,ES,2022-08-02
552,Port Hardy,50.6996,-127.4199,64.58,63,20,16.11,CA,2022-08-02
